[
{"name" : "C.C. SANTA FE ",  "coordinate": {"latitude": 19.36095, "longitude": -99.27965},  "postion": 1},
{"name" : "OFFICE DEPOT ",  "coordinate": {"latitude": 19.357860000000002, "longitude": -99.27750999999999},  "postion": 2},
{"name" : "SAM´S CLUB 1 ",  "coordinate": {"latitude": 19.35653, "longitude": -99.2771},  "postion": 3},
{"name" : "SAM´S CLUB 2",  "coordinate": {"latitude": 19.35654, "longitude": -99.27637},  "postion": 4},
{"name" : "ENRIQUE DEL MORAL",  "coordinate": {"latitude": 19.35853, "longitude": -99.27199},  "postion": 5},
{"name" : "JUAN O´GORMAN  ",  "coordinate": {"latitude": 19.359720000000006, "longitude": -99.26951},  "postion": 6},
{"name" : "LUIS BARRAGAN",  "coordinate": {"latitude": 19.36124, "longitude": -99.26714},  "postion": 7},
{"name" : "CENTRO BANCOMER",  "coordinate": {"latitude": 19.36234, "longitude": -99.26404000000001},  "postion": 8},
{"name" : "BARROS SIERRA",  "coordinate": {"latitude": 19.361729999999998, "longitude": -99.26246},  "postion": 9},
{"name" : "PARK PLAZA",  "coordinate": {"latitude": 19.36485, "longitude": -99.25984},  "postion": 10},
{"name" : "WESTIN",  "coordinate": {"latitude": 19.36621, "longitude": -99.25869},  "postion": 11},
{"name" : "ALAMEDA PONIENTE ",  "coordinate": {"latitude": 19.36884, "longitude": -99.25737},  "postion": 12},
{"name" : "ANTONIO DOVALI JAIME",  "coordinate": {"latitude": 19.36811, "longitude": -99.26031},  "postion": 13},
{"name" : "ROBERTO MEDELLIN",  "coordinate": {"latitude": 19.37262, "longitude": -99.25917},  "postion": 14},
{"name" : "GUILLERMO HARO",  "coordinate": {"latitude": 19.37448, "longitude": -99.2574},  "postion": 15},
{"name" : "MANUEL SANDOVAL",  "coordinate": {"latitude": 19.37566, "longitude": -99.25541},  "postion": 16},
{"name" : "ESPINOZA GUTIERREZ",  "coordinate": {"latitude": 19.37632, "longitude": -99.25403},  "postion": 17},
{"name" : "TELEVISA SANTA FE ",  "coordinate": {"latitude": 19.37746, "longitude": -99.25153},  "postion": 18},
{"name" : "CARLOS MADRAZO",  "coordinate": {"latitude": 19.37821, "longitude": -99.24943},  "postion": 19},
{"name" : "GTA. VASCO DE QUIROGA ",  "coordinate": {"latitude": 19.3791, "longitude": -99.24835},  "postion": 20},
{"name" : "CONAFRUT",  "coordinate": {"latitude": 19.386860000000002, "longitude": -99.2426},  "postion": 21},
{"name" : "RADIO CENTRO",  "coordinate": {"latitude": 19.39335, "longitude": -99.2378},  "postion": 22},
{"name" : "CDA. CONSTITUYENTES",  "coordinate": {"latitude": 19.395670000000006, "longitude": -99.22721999999999},  "postion": 23},
{"name" : "EDO. MAYOR PRESIDENCIAL",  "coordinate": {"latitude": 19.3958, "longitude": -99.22316},  "postion": 24},
{"name" : "SECRETARIA DE HACIENDA",  "coordinate": {"latitude": 19.39789, "longitude": -99.21676},  "postion": 25},
{"name" : "VOCACIONAL 4",  "coordinate": {"latitude": 19.3986, "longitude": -99.21475},  "postion": 26},
{"name" : "OBSERVATORIO",  "coordinate": {"latitude": 19.40053, "longitude": -99.2112},  "postion": 27},
{"name" : "MIRANDA",  "coordinate": {"latitude": 19.402260000000002, "longitude": -99.20846},  "postion": 28},
{"name" : "SUR 128",  "coordinate": {"latitude": 19.40594, "longitude": -99.20260999999999},  "postion": 29},
{"name" : "GRAL. JOSE MA. MENDEVIL",  "coordinate": {"latitude": 19.40713, "longitude": -99.20036},  "postion": 30},
{"name" : "GRAL. JOSE MONTESINOS",  "coordinate": {"latitude": 19.40881, "longitude": -99.19736999999999},  "postion": 31},
{"name" : "CONSTITUYENTES",  "coordinate": {"latitude": 19.411739999999998, "longitude": -99.1919},  "postion": 32},
{"name" : "U.V.M.",  "coordinate": {"latitude": 19.41372, "longitude": -99.18796999999999},  "postion": 33},
{"name" : "GOB. TIBURCIO MONTIEL",  "coordinate": {"latitude": 19.41509, "longitude": -99.18529000000001},  "postion": 34},
{"name" : "LAS FLORES",  "coordinate": {"latitude": 19.41636, "longitude": -99.18115999999999},  "postion": 35},
{"name" : "CHAPULTEPEC",  "coordinate": {"latitude": 19.41951, "longitude": -99.17736},  "postion": 36},
{"name" : "SONORA",  "coordinate": {"latitude": 19.42091, "longitude": -99.17424},  "postion": 37},
{"name" : "SEVILLA",  "coordinate": {"latitude": 19.4217, "longitude": -99.17071999999999},  "postion": 38},
{"name" : "MEDELLIN",  "coordinate": {"latitude": 19.42245, "longitude": -99.16733},  "postion": 39},
{"name" : "MERIDA",  "coordinate": {"latitude": 19.42449, "longitude": -99.15894},  "postion": 40},
{"name" : "CUAUHTEMOC",  "coordinate": {"latitude": 19.42549, "longitude": -99.1547},  "postion": 41},
{"name" : "DR. VERTIZ",  "coordinate": {"latitude": 19.427039999999998, "longitude": -99.14641},  "postion": 42},
{"name" : "C.C. BALDERAS",  "coordinate": {"latitude": 19.42727, "longitude": -99.14926},  "postion": 43}
]